,City,Cloudiness,Country,Date,Humidity,Lat,Lng,Max Temp,Wind Speed
0,Ovalle,0,CL,1568500139,52,-30.6,-71.2,58.17,7.87
1,Albany,75,US,1568500017,77,42.65,-73.75,69.01,9.17
2,Fomboni,0,KM,1568500139,73,-12.28,43.74,77.79,6.11
3,Chuy,77,UY,1568500139,87,-33.69,-53.46,56.37,12.39
4,Puerto Ayora,75,EC,1568500140,60,-0.74,-90.35,75.2,6.93
5,Butaritari,0,KI,1568500140,65,3.07,172.79,83.73,3.02
6,Punta Arenas,75,CL,1568500140,81,-53.16,-70.91,42.8,9.17
7,Yellowknife,75,CA,1568500140,72,62.45,-114.38,59.0,2.24
8,Rikitea,0,PF,1568500141,67,-23.12,-134.97,69.87,11.41
9,Vaini,25,IN,1568500141,94,15.34,74.49,73.83,1.34
10,Hermanus,60,ZA,1568500141,68,-34.42,19.24,54.0,1.01
11,Fortuna,90,US,1568500141,68,40.6,-124.16,68.0,17.22
12,Maniitsoq,8,GL,1568500141,76,65.42,-52.9,38.73,17.92
13,Provideniya,85,RU,1568500142,75,64.42,-173.23,44.49,4.03
14,Ushuaia,75,AR,1568500142,93,-54.81,-68.31,39.2,3.36
15,Bilma,0,NE,1568500142,17,18.69,12.92,95.61,9.33
16,Cape Town,0,ZA,1568500142,71,-33.93,18.42,57.99,6.93
17,Dekar,0,BW,1568500143,14,-21.53,21.93,68.43,7.52
18,East London,58,ZA,1568500143,80,-33.02,27.91,53.67,7.61
19,Aguilas,94,ES,1568500143,60,37.41,-1.58,73.99,1.01
20,Cidreira,100,BR,1568500144,83,-30.17,-50.22,63.21,21.61
21,Hue,20,VN,1568500144,94,16.47,107.58,77.0,2.24
22,Emerald,0,AU,1568500144,24,-23.53,148.16,68.0,4.7
23,Vilhena,19,BR,1568500144,45,-12.74,-60.15,87.8,5.82
24,Mecca,58,SA,1568499918,43,21.43,39.83,83.37,3.83
25,Komsomolskiy,100,RU,1568500145,89,67.55,63.78,40.35,11.86
26,Cangucu,90,BR,1568500145,82,-31.39,-52.68,64.4,13.87
27,Port Elizabeth,75,US,1568500145,69,39.31,-74.98,79.0,5.82
28,Kisangani,44,CD,1568500146,81,0.52,25.21,74.37,1.61
29,Mahebourg,75,MU,1568500146,83,-20.41,57.7,69.8,6.93
30,Tocopilla,66,CL,1568500146,86,-22.09,-70.2,57.45,17.45
31,Otane,67,NZ,1568500146,66,-39.89,176.62,55.0,11.01
32,Leh,0,IN,1568500147,39,34.16,77.58,41.43,7.76
33,Tasiilaq,100,GL,1568500147,47,65.61,-37.64,37.4,8.05
34,Hithadhoo,84,MV,1568500147,75,-0.6,73.08,83.37,12.95
35,Ribeira Grande,100,PT,1568500147,68,38.52,-28.7,71.49,0.6
36,Vanavara,78,RU,1568500148,97,60.35,102.28,29.55,7.16
37,Kirovskiy,0,RU,1568500148,94,45.09,133.51,48.09,3.69
38,Mataura,73,NZ,1568500148,78,-46.19,168.86,48.99,5.99
39,Margate,20,AU,1568500089,22,-43.03,147.26,59.0,19.46
40,Bluff,0,AU,1568500149,36,-23.58,149.07,60.87,5.5
41,Thinadhoo,69,MV,1568500149,77,0.53,72.93,83.37,12.08
42,Nikolskoye,40,RU,1568500149,81,59.7,30.79,46.4,8.95
43,Sturgis,90,CA,1568500149,52,51.94,-102.54,68.43,9.82
44,Coihaique,90,CL,1568500106,86,-45.58,-72.07,39.2,4.7
45,Nanortalik,67,GL,1568500145,81,60.14,-45.24,39.99,10.8
46,Bredasdorp,60,ZA,1568500150,93,-34.53,20.04,48.2,1.74
47,Hamilton,40,CA,1568500008,52,43.26,-79.87,73.99,14.99
48,Atuona,42,PF,1568500151,71,-9.8,-139.03,80.31,10.36
49,Aklavik,75,CA,1568500151,75,68.22,-135.01,44.6,11.41
50,Makakilo City,1,US,1568500151,66,21.35,-158.09,87.8,10.29
51,Qaanaaq,0,GL,1568500151,49,77.48,-69.36,23.97,3.8
52,Ostrovnoy,100,RU,1568500151,97,68.05,39.51,42.69,27.58
53,Jamestown,66,AU,1568500152,42,-33.21,138.6,60.69,8.75
54,Port Blair,100,IN,1568500153,85,11.67,92.75,79.59,23.17
55,Codrington,0,AU,1568500153,77,-28.95,153.24,64.4,5.82
56,Chokurdakh,100,RU,1568500154,85,70.62,147.9,40.17,2.06
57,La Sarre,100,CA,1568500154,90,48.8,-79.2,52.59,11.83
58,Hobart,20,AU,1568499903,22,-42.88,147.33,59.0,19.46
59,Busselton,100,AU,1568500155,80,-33.64,115.35,46.0,12.15
60,Rio Gallegos,20,AR,1568500155,70,-51.62,-69.22,44.6,11.41
61,Tiksi,100,RU,1568500155,93,71.64,128.87,36.75,3.47
62,Constitucion,75,MX,1568500156,46,23.99,-104.67,75.99,12.75
63,Motygino,100,RU,1568500156,98,58.18,94.69,32.97,3.06
64,Vila do Maio,40,CV,1568500156,78,15.13,-23.22,80.6,14.99
65,Tuktoyaktuk,90,CA,1568500156,86,69.44,-133.03,41.0,11.41
66,Yokadouma,56,CM,1568500156,98,3.52,15.05,70.41,1.86
67,Garoua Boulai,52,CM,1568500157,92,5.88,14.55,66.45,1.97
68,Liberal,1,US,1568500157,30,37.04,-100.92,95.0,18.34
69,Richards Bay,99,ZA,1568500157,72,-28.77,32.06,66.09,4.72
70,Avarua,71,CK,1568500157,57,-21.21,-159.78,77.0,13.87
71,Caravelas,0,BR,1568500158,76,-17.73,-39.27,74.91,7.96
72,Praia da Vitoria,75,PT,1568500158,88,38.73,-27.07,69.8,10.56
73,Kungurtug,0,RU,1568500158,89,50.6,97.53,28.11,2.28
74,Carnarvon,11,ZA,1568500159,25,-30.97,22.13,53.13,4.76
75,Talnakh,75,RU,1568500159,100,69.49,88.39,30.2,8.95
76,Lewisporte,75,CA,1568500150,50,49.25,-55.06,57.99,4.7
77,Castanos,5,MX,1568500159,30,26.78,-101.42,93.99,5.01
78,Hilo,1,US,1568500160,62,19.71,-155.08,87.8,10.29
79,Meridian,1,US,1568500160,19,43.61,-116.39,90.0,5.82
80,Thompson,75,CA,1568500160,52,55.74,-97.86,66.2,8.05
81,Marsh Harbour,100,BS,1568500160,82,26.54,-77.06,81.03,15.55
82,Tuatapere,43,NZ,1568500161,78,-46.13,167.69,48.99,5.99
83,Puntarenas,75,CR,1568499868,88,9.98,-84.84,79.0,9.17
84,Saint-Pierre,0,FR,1568500161,72,48.95,4.24,60.8,5.82
85,Dalvik,100,SE,1568500162,81,57.79,14.13,55.0,19.46
86,Ritchie,98,ZA,1568500162,29,-29.03,24.6,50.0,1.12
87,Hervey Bay,4,AU,1568500162,82,-25.3,152.85,71.01,5.82
88,Payo,100,ID,1568500162,48,-3.75,103.64,63.39,3.44
89,Key West,1,US,1568500144,64,47.93,-96.78,70.0,12.75
90,Barrow,100,AR,1568500163,63,-38.31,-60.23,61.41,11.61
91,Torbay,20,CA,1568500139,72,47.66,-52.73,48.99,2.24
92,Pevek,100,RU,1568500163,77,69.7,170.27,44.67,19.13
93,Srednekolymsk,68,RU,1568500163,73,67.46,153.71,47.19,9.35
94,Dikson,100,RU,1568500164,89,73.51,80.55,36.03,14.07
95,Xushan,0,CN,1568500164,88,30.18,121.25,80.01,6.71
96,Yining,0,CN,1568500164,97,29.04,114.56,71.13,2.15
97,San Pedro,72,AR,1568500165,64,-33.68,-59.66,64.99,5.21
98,Salalah,75,OM,1568500165,83,17.01,54.1,80.6,3.36
99,Ilulissat,100,GL,1568500165,86,69.22,-51.1,33.8,9.48
100,Basoko,99,CD,1568500166,85,1.23,23.61,72.39,1.7
101,Saint-Joseph,0,FR,1568500166,68,43.56,6.97,75.99,4.7
102,Oranjemund,99,ZA,1568500166,73,-28.55,16.43,57.27,10.42
103,Bayangol,0,MN,1568500167,82,48.91,106.09,33.69,4.21
104,Scheia,96,CH,1568500167,92,46.84,9.3,63.0,5.14
105,Nouadhibou,0,MR,1568500167,78,20.93,-17.03,71.6,17.22
106,Katghora,100,IN,1568500167,98,22.51,82.55,74.01,3.2
107,New Norfolk,20,AU,1568500168,22,-42.78,147.06,59.0,19.46
108,Haines Junction,1,CA,1568500168,52,60.75,-137.51,51.87,3.33
109,Adre,99,TD,1568500168,72,13.47,22.2,72.03,8.63
110,Upernavik,0,GL,1568500168,69,72.79,-56.15,30.63,12.53
111,Laramie,1,US,1568500118,14,41.31,-105.59,82.4,14.99
112,Terrace,75,CA,1568500169,82,54.52,-128.61,55.4,8.05
113,Colares,0,PT,1568500170,47,38.8,-9.45,77.0,11.41
114,Saint-Augustin,75,CA,1568500170,68,45.63,-73.98,71.6,6.93
115,Cabo San Lucas,40,MX,1568500031,66,22.89,-109.91,91.99,11.41
116,Muzhi,100,RU,1568500170,98,65.4,64.7,44.13,6.96
117,Antofagasta,20,CL,1568500171,71,-23.65,-70.4,57.2,13.87
118,Junin,0,PE,1568500171,17,-16.45,-71.58,66.2,11.41
119,Saint-Philippe,40,CA,1568500171,64,45.36,-73.48,72.0,18.34
120,Minot,1,US,1568500082,33,48.23,-101.3,77.0,14.99
121,Mar del Plata,20,AR,1568500172,32,-46.43,-67.52,55.47,25.21
122,Kununurra,87,AU,1568500172,77,-15.77,128.74,68.0,4.7
123,Shimanovsk,95,RU,1568500172,94,52.0,127.67,48.27,8.12
124,Vila Velha,0,BR,1568500172,74,-3.71,-38.6,80.6,12.75
125,Narsaq,0,GL,1568500173,76,60.91,-46.05,42.8,10.29
126,Abbeville,0,FR,1568500173,87,50.11,1.83,57.2,3.36
127,Norman Wells,90,CA,1568500173,81,65.28,-126.83,44.6,17.22
128,Inhambane,87,MZ,1568500174,88,-23.87,35.38,70.05,6.24
129,Kapaa,75,US,1568500174,70,22.08,-159.32,86.0,10.29
130,Hasaki,75,JP,1568500174,88,35.73,140.83,71.6,6.93
131,Ponta do Sol,0,BR,1568500175,34,-20.63,-46.0,79.41,4.23
132,Deputatskiy,100,RU,1568500175,93,69.3,139.9,36.39,2.98
133,Sitka,0,US,1568500175,36,37.17,-99.65,93.0,23.0
134,Lompoc,1,US,1568500176,47,34.64,-120.46,95.0,13.87
135,Morant Bay,20,JM,1568500176,66,17.88,-76.41,87.8,24.16
136,Qasigiannguit,100,GL,1568500176,86,68.82,-51.19,33.8,9.86
137,Yaan,65,NG,1568500176,95,7.38,8.57,74.37,3.18
138,Carballo,0,ES,1568500177,88,43.21,-8.69,71.01,5.82
139,Flinders,0,AU,1568500177,36,-34.58,150.85,60.8,17.22
140,Wajima,9,JP,1568500177,71,37.4,136.9,78.15,5.35
141,Egvekinot,100,RU,1568500178,82,66.32,-179.17,38.37,3.53
142,Eydhafushi,76,MV,1568500178,71,5.1,73.07,82.83,2.98
143,Tecoanapa,75,MX,1568500179,74,16.99,-99.26,87.8,9.17
144,Chodavaram,0,IN,1568500179,92,17.44,81.78,74.37,0.89
145,Marataizes,46,BR,1568499885,86,-21.04,-40.82,70.59,3.4
146,Port Alfred,59,ZA,1568500179,83,-33.59,26.89,59.0,4.0
147,Apollonia,0,GR,1568500180,37,40.64,23.49,75.0,5.82
148,Berezovyy,99,RU,1568500180,70,51.67,135.7,39.45,4.16
149,Saint George,0,GR,1568500178,42,39.45,22.34,66.2,5.82
150,Ayan,0,IR,1568500180,67,38.23,44.7,49.17,2.55
151,Synya,100,RU,1568500181,86,65.37,58.04,51.87,7.87
152,Arlit,0,NE,1568500181,13,18.74,7.39,97.41,16.2
153,Nome,1,US,1568500181,46,30.04,-94.42,95.0,10.29
154,Nishihara,1,JP,1568500181,88,35.74,139.53,78.01,4.9
155,Abong Mbang,100,CM,1568500182,98,3.98,13.18,69.15,5.55
156,Tottori,75,JP,1568500045,83,35.5,134.23,73.4,5.82
157,Nanzhou,98,CN,1568500182,57,29.37,112.41,73.65,10.0
158,Ust-Omchug,100,RU,1568500182,79,61.13,149.63,41.97,2.73
159,San Patricio,0,PY,1568500183,62,-26.98,-56.83,77.61,2.42
160,Grindavik,75,IS,1568500183,69,63.84,-22.43,42.8,20.8
161,Koutsouras,0,GR,1568500183,42,35.03,25.95,78.01,18.99
162,Faanui,84,PF,1568500183,73,-16.48,-151.75,75.99,16.93
163,Zlate Moravce,0,SK,1568500184,76,48.39,18.4,57.99,8.05
164,Genhe,100,CN,1568500184,98,50.78,121.52,39.99,4.29
165,Kavieng,67,PG,1568500184,77,-2.57,150.8,82.47,7.99
166,Port-Gentil,40,GA,1568500185,88,-0.72,8.78,78.8,12.75
167,Laurel,90,US,1568500185,73,39.1,-76.85,80.01,3.36
168,Arraial do Cabo,75,BR,1568500185,88,-22.97,-42.02,71.6,8.05
169,Castro,90,CL,1568500185,93,-42.48,-73.76,44.6,11.41
170,Itanhaem,90,BR,1568500103,93,-24.18,-46.79,69.8,11.41
171,Laguna,75,BZ,1568500168,70,16.17,-88.94,87.8,6.93
172,Voh,5,NC,1568500186,72,-20.95,164.69,68.97,14.65
173,Tautira,40,PF,1568500186,54,-17.73,-149.15,82.4,6.93
174,Pacific Grove,20,US,1568500187,68,36.62,-121.92,98.01,6.93
175,Lorengau,65,PG,1568500187,83,-2.02,147.27,80.13,8.48
176,Tadine,45,NC,1568500187,71,-21.55,167.88,70.23,12.41
177,Mabaruma,80,GY,1568500187,79,8.2,-59.78,82.65,6.4
178,Marsa Matruh,40,EG,1568500188,74,31.35,27.25,78.8,10.29
179,Shaoxing,75,CN,1568500189,78,30.0,120.58,82.0,6.71
180,Mehamn,17,NO,1568500189,77,71.03,27.85,40.71,3.62
181,La Ronge,75,CA,1568500189,63,55.1,-105.3,66.2,9.17
182,Gillette,1,US,1568500189,21,44.29,-105.5,81.0,6.22
183,Longyearbyen,75,NO,1568500190,80,78.22,15.63,39.2,29.97
184,Saskylakh,100,RU,1568500190,89,71.97,114.09,37.11,12.62
185,Adelaide,0,AU,1568500191,59,-34.93,138.6,70.0,9.17
186,Eureka,1,US,1568500191,72,40.8,-124.16,68.0,6.93
187,Dongsheng,85,CN,1568500191,60,29.72,112.52,73.11,9.31
188,Kruisfontein,100,ZA,1568500192,79,-34.0,24.73,52.23,6.53
189,Atar,92,MR,1568500192,21,20.52,-13.05,101.37,3.89
190,Trapani,0,IT,1568500192,88,38.02,12.54,75.99,4.7
191,Uglezavodsk,0,RU,1568500193,93,47.32,142.63,53.6,8.95
192,Puerto Madryn,100,AR,1568500079,32,-42.77,-65.04,64.11,8.34
193,Santo Anastacio,0,BR,1568500193,27,-21.84,-51.61,87.8,5.82
194,San Quintin,100,PH,1568500193,91,17.54,120.52,74.01,2.8
195,Miraflores,0,PE,1568500194,17,-16.39,-71.52,66.2,11.41
196,Luderitz,90,NA,1568500194,67,-26.65,15.16,57.2,2.24
197,Beitbridge,0,ZA,1568500194,65,-22.21,29.99,66.09,15.64
198,Sinnamary,0,GF,1568500195,78,5.38,-52.96,82.65,8.75
199,Provost,75,CA,1568500195,37,52.35,-110.26,71.31,9.48
200,Bethel,75,US,1568500195,93,60.79,-161.76,55.4,11.41
201,Ust-Shonosha,100,RU,1568500196,91,61.15,41.34,44.49,11.16
202,Broken Hill,0,AU,1568500196,38,-31.97,141.45,66.2,9.17
203,Tiarei,40,PF,1568500196,54,-17.53,-149.33,82.4,6.93
204,Lebu,75,ET,1568500197,82,8.96,38.73,57.2,4.7
205,Tilichiki,0,RU,1568500197,70,60.47,166.1,44.13,3.11
206,Aksu,0,KZ,1568500197,93,52.04,76.93,48.2,2.24
207,Vaitape,84,PF,1568500197,73,-16.52,-151.75,75.99,16.93
208,Mimongo,64,GA,1568500198,96,-1.62,11.6,69.69,3.67
209,Kaeo,100,NZ,1568500198,100,-35.1,173.78,62.01,7.58
210,Comodoro Rivadavia,40,AR,1568500198,30,-45.87,-67.48,59.0,16.11
211,Altayskoye,97,RU,1568500198,75,51.95,85.34,48.99,7.2
212,Ishigaki,75,JP,1568500199,94,24.34,124.16,80.6,6.93
213,Susurluk,0,TR,1568500199,60,39.91,28.16,70.0,21.92
214,Kimbe,74,PG,1568500199,80,-5.56,150.15,76.17,2.98
215,Pisco,75,PE,1568500200,30,-13.71,-76.2,71.6,16.11
216,Alegrete,86,BR,1568500200,85,-29.79,-55.79,67.35,3.62
217,Zhuhai,0,CN,1568500200,87,40.71,112.04,51.8,4.47
218,Enterprise,1,US,1568500118,6,36.05,-115.22,100.4,6.98
219,Homer,1,US,1568500201,67,59.64,-151.54,64.0,3.36
220,Husavik,36,CA,1568500201,48,50.56,-96.99,68.0,5.01
221,Geraldton,40,CA,1568500201,58,49.72,-86.95,57.2,10.29
222,Airai,20,TL,1568500202,36,-8.93,125.41,78.45,2.68
223,Jieshi,4,CN,1568500203,79,22.82,115.83,80.97,1.66
224,Iqaluit,20,CA,1568500204,42,63.75,-68.52,46.4,10.29
225,Uige,5,AO,1568500204,66,-7.61,15.06,70.35,2.8
226,Esperance,90,AU,1568500205,93,-33.86,121.89,57.2,4.7
227,Razdolinsk,100,RU,1568500205,98,58.42,94.62,33.81,1.57
228,Clyde River,1,CA,1568500208,74,70.47,-68.59,37.4,8.05
229,Udachnyy,90,RU,1568500210,100,66.42,112.4,19.4,4.47
230,Arona,0,IT,1568500210,88,45.76,8.56,75.0,3.36
231,Namatanai,100,PG,1568500212,89,-3.66,152.44,74.85,13.78
232,Mareeba,0,AU,1568500213,60,-16.99,145.42,72.0,8.05
233,The Valley,40,AI,1568500214,79,18.22,-63.06,86.0,12.75
234,Puerto del Rosario,20,ES,1568500214,83,28.5,-13.86,71.6,16.11
235,General Roca,40,AR,1568500214,39,-39.03,-67.58,64.4,6.93
236,Kodiak,75,US,1568500214,69,39.95,-94.76,87.8,9.17
237,Ouesso,40,CG,1568500215,97,1.61,16.05,70.35,2.33
238,Vuktyl,94,RU,1568500215,91,63.86,57.31,52.35,13.4
239,Hajdunanas,0,HU,1568500216,58,47.85,21.43,57.2,8.05
240,Hihya,0,EG,1568500216,61,30.67,31.59,80.6,4.7
241,Shenjiamen,0,CN,1568500216,77,29.96,122.3,78.81,11.7
242,Maxixe,92,MZ,1568500217,88,-23.86,35.35,70.17,5.61
243,Shaunavon,44,CA,1568500217,41,49.65,-108.41,69.81,8.23
244,Monrovia,75,LR,1568500217,94,6.33,-10.8,77.0,10.33
245,Barcelos,100,BR,1568500217,62,-0.97,-62.93,82.05,2.21
246,Chapais,90,CA,1568500218,93,49.78,-74.86,55.4,10.29
247,Matipo,53,BR,1568500218,87,-20.28,-42.34,64.41,5.68
248,Yinchuan,97,CN,1568500218,41,38.48,106.21,62.97,2.64
249,Pimentel,98,BR,1568500218,66,-3.7,-45.5,80.97,4.59
250,Skelleftea,77,SE,1568500219,86,64.75,20.95,41.0,3.36
251,Los Corrales de Buelna,47,ES,1568500219,94,43.26,-4.07,68.0,3.65
252,Saldanha,99,PT,1568500219,58,41.42,-6.55,67.47,3.87
253,Pangoa,3,PE,1568500220,66,-12.12,-73.0,73.59,1.39
254,Natal,20,BR,1568500220,74,-5.81,-35.21,78.8,14.99
255,Wyndham,76,GB,1568500220,93,51.61,-3.54,57.99,8.05
256,Victor Harbor,0,AU,1568500220,59,-35.55,138.62,70.0,9.17
257,Coruripe,0,BR,1568500221,91,-10.12,-36.18,65.85,2.93
258,Beidao,100,CN,1568500221,88,34.57,105.89,50.19,0.87
259,Narasannapeta,0,IN,1568500221,93,18.42,84.04,77.01,3.71
260,Trelew,99,AR,1568500221,42,-43.25,-65.31,57.21,8.52
261,Bundaberg,0,AU,1568500222,82,-24.87,152.35,73.0,5.82
262,Sayville,90,US,1568500222,83,40.74,-73.08,73.4,12.75
263,Salamiyah,0,SY,1568500222,90,35.01,37.05,67.47,8.48
264,Novy Hrozenkov,0,CZ,1568500222,87,49.34,18.2,48.99,2.24
265,Springbok,43,ZA,1568500223,36,-29.67,17.88,55.95,2.75
266,Batagay,100,RU,1568500223,63,67.65,134.64,39.93,3.8
267,Kurtamysh,26,RU,1568500223,82,54.91,64.43,52.71,5.84
268,Gat,75,SN,1568500223,88,14.69,-16.54,80.6,8.05
269,Walvis Bay,0,NA,1568500224,100,-22.95,14.51,55.99,6.93
270,Tofield,75,CA,1568500224,42,53.37,-112.67,69.01,4.5
271,Yagodnoye,100,RU,1568500224,66,62.52,149.63,43.89,2.98
272,Bahia Blanca,100,AR,1568500202,57,-38.72,-62.27,60.81,13.89
273,Kahului,40,US,1568500224,55,20.89,-156.47,89.6,16.11
274,Canavieiras,14,BR,1568500225,87,-15.68,-38.95,71.07,4.74
275,Mount Isa,0,AU,1568500225,17,-20.73,139.49,66.2,2.24
276,Sumenep,41,ID,1568500225,71,-7.02,113.87,77.91,11.32
277,Cabano,90,CA,1568500225,93,47.68,-68.89,55.99,12.75
278,Gazanjyk,0,TM,1568500226,31,39.24,55.52,68.55,6.24
279,Port Lincoln,93,AU,1568500226,81,-34.72,135.86,60.45,4.05
280,Calabozo,100,VE,1568500016,79,8.92,-67.43,85.17,1.36
281,Necochea,100,AR,1568500226,69,-38.55,-58.74,57.0,11.01
282,Jardim,34,BR,1568500227,29,-21.48,-56.15,83.31,2.24
283,Mubi,32,NG,1568500227,88,10.27,13.26,73.05,2.48
284,Aleksandrovskiy Zavod,46,RU,1568500227,55,50.92,117.94,31.29,18.86
285,Port Hardy,90,CA,1568500227,82,50.7,-127.42,59.0,6.93
286,Albanel,75,CA,1568500228,93,48.88,-72.44,61.0,8.05
287,Yerbogachen,100,RU,1568500228,86,61.28,108.01,30.03,13.42
288,Severo-Kurilsk,100,RU,1568500228,61,50.68,156.12,51.45,10.78
289,Padang,100,ID,1568500228,76,-0.92,100.36,78.81,12.19
290,Sabinov,0,SK,1568500229,62,49.1,21.1,53.6,11.41
291,Half Moon Bay,20,US,1568500229,50,37.46,-122.43,88.0,21.92
292,Luanda,11,AO,1568500109,82,-8.83,13.24,71.49,9.57
293,Kudahuvadhoo,54,MV,1568500229,72,2.67,72.89,82.95,7.96
294,Beloha,0,MG,1568500230,72,-25.17,45.06,66.21,2.04
295,Waingapu,31,ID,1568500230,71,-9.65,120.26,75.93,12.91
296,Maceio,0,BR,1568500230,78,-9.67,-35.74,75.2,5.82
297,Lata,11,IN,1568500230,77,30.78,78.62,36.33,2.24
298,Itoman,90,JP,1568500231,94,26.12,127.67,80.6,9.17
299,Matagami,88,NG,1568500231,95,9.67,8.4,68.01,0.98
300,Astana,0,KZ,1568500231,93,51.13,71.43,46.4,2.24
301,Alofi,97,NU,1568500231,74,-19.06,-169.92,80.6,14.99
302,Saravan,20,AM,1568500232,52,39.72,45.65,64.4,6.93
303,Zyryanskoye,100,RU,1568500232,98,56.83,86.62,47.67,7.23
304,Namibe,0,AO,1568500232,78,-15.19,12.15,65.85,20.58
305,Puerto Narino,75,CO,1568500233,79,-3.77,-70.38,86.0,3.36
306,Porto Novo,20,BR,1568500233,82,-23.68,-45.44,68.0,12.75
307,Mackay,40,CA,1568500233,52,53.65,-115.58,66.2,4.7
308,Te Anau,0,NZ,1568500233,56,-45.41,167.72,45.51,6.11
309,Kyabe,79,TD,1568500234,96,9.45,18.94,71.43,1.25
310,Soyo,12,AO,1568500234,81,-6.13,12.37,73.23,8.14
311,Vestmannaeyjar,34,IS,1568500234,67,63.44,-20.27,44.43,26.53
312,Chunskiy,100,RU,1568500234,97,56.08,99.63,35.97,6.29
313,Yulara,0,AU,1568500234,19,-25.24,130.99,55.4,6.93
314,Chara,0,GR,1568500235,42,39.42,22.43,66.2,5.82
315,Maningrida,60,AU,1568500235,54,-12.05,134.23,77.91,12.3
316,Lavrentiya,76,RU,1568500235,70,65.58,-170.99,45.33,2.37
317,Khatanga,100,RU,1568500236,95,71.98,102.47,37.77,14.12
318,Manokwari,5,ID,1568500106,76,-0.87,134.08,72.57,5.28
319,Isangel,20,VU,1568500236,69,-19.55,169.27,77.0,11.41
320,Vallenar,0,CL,1568500236,90,-28.58,-70.76,45.15,2.37
321,Mukhen,18,RU,1568500236,80,48.19,136.14,60.63,9.48
322,Sisimiut,95,GL,1568500237,84,66.94,-53.67,38.85,7.09
323,Riberalta,36,BO,1568500237,52,-11.0,-66.08,91.4,1.21
324,Linkou,0,CN,1568500237,77,45.29,130.27,57.57,8.03
325,Charters Towers,0,AU,1568500237,36,-20.07,146.27,74.13,10.89
326,Victoria,75,BN,1568499953,88,5.28,115.24,80.6,9.75
327,Goya,0,AR,1568500238,65,-29.14,-59.27,64.95,6.89
328,Kochinda,65,IN,1568500238,93,21.73,84.35,76.29,3.22
329,Kulpahar,86,IN,1568500238,89,25.32,79.64,78.45,4.12
330,Riyadh,0,SA,1568500109,25,24.63,46.72,87.8,3.36
331,Frontino,100,CO,1568500239,97,6.77,-76.13,71.79,0.6
332,Bilibino,100,RU,1568500239,38,68.06,166.44,44.97,8.5
333,Klaksvik,100,FO,1568500239,81,62.23,-6.59,48.2,42.5
334,Ancud,90,CL,1568500239,93,-41.87,-73.83,44.6,11.41
335,Omsukchan,100,RU,1568500240,92,62.53,155.8,39.57,6.53
336,Pasni,12,PK,1568500240,84,25.26,63.48,78.81,4.99
337,Guarapari,75,BR,1568500240,83,-20.67,-40.5,75.2,10.29
338,Najran,0,SA,1568500241,24,17.54,44.22,82.4,4.7
339,Spearfish,1,US,1568500241,27,44.49,-103.86,84.99,12.75
340,Gejiu,0,CN,1568500241,86,23.36,103.16,62.97,1.74
341,Vardo,90,US,1568500241,73,39.62,-77.74,78.01,8.05
342,Kokoda,44,PG,1568500242,69,-8.88,147.74,70.53,4.9
343,Atherton,8,AU,1568500242,60,-17.27,145.48,72.0,8.05
344,Raymond,75,CA,1568499963,42,49.47,-112.67,68.0,24.16
345,Fairbanks,1,US,1568500242,51,64.84,-147.72,62.01,9.17
346,Urdoma,99,RU,1568500243,80,61.74,48.55,46.77,14.83
347,Poum,11,MK,1568500243,79,41.28,20.71,51.99,4.56
348,Kaitangata,23,NZ,1568500243,57,-46.28,169.85,51.01,4.0
349,Ambilobe,2,MG,1568500243,83,-13.19,49.05,70.17,7.96
350,Chamba,0,IN,1568500141,73,32.56,76.12,66.99,6.33
351,Bay Roberts,20,CA,1568500244,86,47.58,-53.28,48.0,2.24
352,Batticaloa,99,LK,1568500244,86,7.71,81.69,76.11,2.77
353,Malazgirt,0,TR,1568500244,50,39.15,42.54,53.61,5.53
354,Sibu,75,MY,1568500244,88,2.29,111.83,73.4,2.24
355,Trinidad,31,BO,1568500245,46,-14.83,-64.9,93.2,4.27
356,Pangody,0,RU,1568500245,74,65.85,74.49,30.39,9.51
357,Korhogo,39,CI,1568500245,92,9.46,-5.63,73.23,2.82
358,Kavaratti,64,IN,1568500245,80,10.57,72.64,81.33,10.74
359,Japura,100,ID,1568500246,80,-0.42,102.29,73.77,2.24
360,Cherskiy,100,RU,1568500246,39,68.75,161.3,49.83,18.52
361,Verkhnevilyuysk,70,RU,1568500246,61,63.45,120.31,34.35,2.39
362,Shelby,100,US,1568500246,33,48.51,-111.86,73.99,18.01
363,Lagoa,0,PT,1568500247,88,37.14,-8.45,72.0,6.93
364,Elat,98,CM,1568500247,98,2.91,11.16,68.19,3.6
365,Yamada,20,JP,1568500247,78,36.58,137.08,78.01,2.24
366,Roebourne,58,AU,1568500247,8,-20.77,117.15,80.79,7.49
367,Truckee,1,US,1568500219,8,39.33,-120.18,91.4,18.34
368,Hrebinka,39,UA,1568500248,65,50.12,32.43,50.19,6.91
369,Dori,95,BF,1568500248,68,14.03,-0.03,81.87,16.26
370,Pandamatenga,0,BW,1568500248,11,-18.54,25.64,67.29,6.46
371,Kirakira,74,SB,1568500248,82,-10.46,161.92,81.69,14.74
372,Virginia Beach,20,US,1568500218,74,36.85,-75.98,82.4,10.29
373,Georgetown,20,GY,1568500249,79,6.8,-58.16,84.2,11.41
374,Adrar,0,DZ,1568500249,15,27.87,-0.29,95.0,5.82
375,Concepcion,74,CO,1568500249,90,9.56,-73.66,79.35,4.05
376,College,1,US,1568500250,51,64.86,-147.8,63.0,9.17
377,Ixtapa,75,MX,1568500250,66,20.71,-105.21,89.6,11.41
378,Surt,0,LY,1568500230,64,31.21,16.59,79.17,14.79
379,Solano,76,CO,1568500250,97,0.7,-75.25,73.23,2.17
380,Meulaboh,100,ID,1568500250,81,4.14,96.13,80.61,7.83
381,Sorland,94,NO,1568500251,72,67.67,12.69,49.11,23.06
382,Mosetse,0,BW,1568500251,50,-20.64,26.64,68.37,13.56
383,Kieta,96,PG,1568500251,71,-6.22,155.63,82.95,7.76
384,Bandar-e Anzali,0,IR,1568500251,100,37.47,49.46,62.6,2.42
385,Victoria Point,20,AU,1568500252,68,-27.58,153.3,70.0,6.93
386,Novo Aripuana,65,BR,1568500252,66,-5.12,-60.38,80.97,3.47
387,Khandyga,100,RU,1568500252,69,62.65,135.58,39.39,2.44
388,Sao Joao da Barra,40,BR,1568500252,78,-21.64,-41.05,75.2,10.29
389,Moron,22,HT,1568500253,76,18.56,-74.26,83.85,7.38
390,Zarate,92,MX,1568500253,93,18.92,-101.44,72.69,1.95
391,Keuruu,0,FI,1568500253,93,62.26,24.71,42.8,6.93
392,Luganville,90,VU,1568500253,88,-15.51,167.18,75.2,2.24
393,Koulamoutou,57,GA,1568500254,98,-1.13,12.47,70.71,2.28
394,Coquimbo,0,CL,1568500254,66,-29.95,-71.34,55.4,10.29
395,Ajra,84,IN,1568500254,98,16.12,74.21,69.45,0.56
396,Nuuk,20,GL,1568500254,86,64.17,-51.74,39.2,5.82
397,Lewisville,40,US,1568500203,32,33.05,-96.99,98.01,8.05
398,Tabou,99,CI,1568500255,94,4.42,-7.36,74.31,3.36
399,Biak,96,ID,1568500255,85,-0.91,122.88,65.31,4.23
400,Erenhot,0,CN,1568500255,37,43.65,111.97,56.31,19.84
401,Sao Felix do Xingu,66,BR,1568500256,43,-6.64,-51.99,82.77,3.65
402,Vangaindrano,65,MG,1568500256,93,-23.35,47.6,68.91,2.46
403,Feijo,20,EC,1568500256,69,-3.63,-79.92,89.6,9.17
404,Ormara,88,PK,1568500256,84,25.21,64.64,79.53,9.17
405,Gwadar,43,PK,1568500257,78,25.12,62.33,82.05,9.4
406,Abu Kamal,0,SY,1568500257,21,34.45,40.92,83.49,12.73
407,Kenai,1,US,1568500257,63,60.55,-151.26,64.4,4.7
408,Kalat,41,PK,1568500257,23,29.03,66.58,61.53,3.76
409,Carutapera,63,BR,1568500258,79,-1.2,-46.02,78.81,9.04
410,Karakol,6,KG,1568500258,42,42.49,78.39,51.99,5.06
411,Montepuez,0,MZ,1568500258,92,-13.13,39.0,64.77,3.6
412,Kuching,75,MY,1568500259,94,1.56,110.34,71.6,0.54
413,Hambantota,75,LK,1568500259,100,6.12,81.12,77.0,3.36
414,Sao Gabriel da Cachoeira,46,BR,1568500259,66,-0.13,-67.09,82.59,1.21
415,Nieves,38,MX,1568500259,59,24.0,-103.02,68.01,9.22
416,Pipri,35,IN,1568500260,90,24.21,83.02,76.65,4.52
417,Atasu,0,KZ,1568500260,63,48.68,71.64,52.71,5.53
418,Solvychegodsk,99,RU,1568500260,80,61.33,46.92,47.31,12.06
419,Warri,85,NG,1568499997,87,5.52,5.75,77.43,5.93
420,Pundaguitan,100,PH,1568500260,72,6.37,126.17,81.33,7.52
421,Nara,0,JP,1568500261,73,34.68,135.8,77.0,5.82
422,Havelock,20,US,1568500261,74,34.88,-76.9,84.0,16.11
423,Kawalu,38,ID,1568500261,89,-7.38,108.21,68.37,3.51
424,Northam,28,AU,1568500261,93,-31.65,116.67,55.4,1.12
425,High Level,40,CA,1568500262,45,58.52,-117.13,68.0,3.36
426,Bambous Virieux,75,MU,1568500262,83,-20.34,57.76,69.8,6.93
427,Wukari,86,NG,1568500262,92,7.87,9.78,73.59,4.43
428,Monroe,1,US,1568500263,47,41.91,-83.4,78.01,4.7
429,Nijar,1,ES,1568500158,69,36.97,-2.21,78.01,1.12
430,Miles City,1,US,1568500263,28,46.41,-105.84,84.0,19.46
431,Tondon,100,GN,1568500263,98,10.37,-13.36,73.23,3.15
432,Villarrica,90,CL,1568500263,93,-39.28,-72.23,50.0,4.7
433,Shache,96,CN,1568500264,24,38.42,77.24,67.47,4.0
434,Griffith,5,AU,1568500264,53,-34.29,146.06,55.4,11.61
435,Saint Anthony,1,US,1568500264,19,43.97,-111.68,82.4,12.75
436,Ozinki,71,RU,1568500265,35,51.2,49.73,64.41,12.62
437,Souillac,0,FR,1568500265,56,45.6,-0.6,78.01,3.36
438,Sala,100,SE,1568500265,81,59.92,16.61,53.6,16.11
439,Salvador,75,BR,1568500134,69,-12.98,-38.48,78.8,9.17
440,Rocha,83,UY,1568500265,97,-34.48,-54.34,52.53,7.43
441,Leningradskiy,23,RU,1568500266,79,69.38,178.42,44.97,14.14
442,Nyangao,0,TZ,1568500266,89,-10.33,39.28,65.85,5.88
443,Bonthe,99,SL,1568500266,91,7.53,-12.5,76.65,7.61
444,Wanaka,0,NZ,1568500266,75,-44.7,169.14,46.99,1.01
445,Rogovatoye,0,RU,1568500267,85,51.23,38.38,46.59,7.14
446,Andros,0,GR,1568500267,56,37.83,24.93,75.0,19.46
447,Guerrero Negro,9,MX,1568500267,77,27.97,-114.04,73.41,12.41
448,Kitgum,0,UG,1568500268,92,3.3,32.88,65.49,1.7
449,Hofn,100,IS,1568500268,87,64.25,-15.21,33.81,32.61
450,Verkhnyaya Inta,100,RU,1568500268,78,65.99,60.32,52.71,16.98
451,Ketchikan,90,US,1568500268,93,55.34,-131.65,59.0,5.82
452,Macaubas,2,BR,1568500269,50,-13.02,-42.7,75.75,10.2
453,Vostok,0,RU,1568500269,62,46.45,135.83,63.33,2.53
454,Merauke,58,ID,1568500269,81,-8.49,140.4,75.21,18.95
455,Bijie,100,CN,1568500269,96,27.3,105.3,57.57,3.71
456,Leticia,75,CO,1568500270,79,-4.21,-69.94,86.0,3.36
457,Ambositra,56,MG,1568500270,78,-20.53,47.24,58.47,2.62
458,Limoges,0,FR,1568500270,52,45.84,1.26,72.0,3.29
459,Dingle,81,PH,1568500270,83,11.0,122.67,79.71,10.18
460,Shiyan,95,CN,1568500271,84,32.65,110.78,60.99,3.94
461,Zhigansk,10,RU,1568500271,55,66.77,123.37,37.41,6.67
462,Aitape,68,PG,1568500271,70,-3.15,142.36,82.95,4.03
463,Henties Bay,0,NA,1568500271,92,-22.12,14.28,55.99,1.01
464,Mizan Teferi,0,ET,1568500272,80,6.99,35.58,62.79,3.96
465,Vanimo,71,PG,1568500272,75,-2.67,141.3,81.15,4.61
466,Benjamin Constant,40,BR,1568500272,74,-4.38,-70.03,86.0,4.7
467,Bagli,90,IN,1568500272,94,22.64,76.35,73.4,9.17
468,Tshela,78,CD,1568500273,78,-4.99,12.94,74.13,4.34
469,Ialibu,100,PG,1568500273,97,-6.28,143.99,65.85,3.31
470,Ornskoldsvik,100,SE,1568500273,86,63.29,18.72,48.2,2.24
471,Dong Hoi,9,VN,1568500083,93,17.48,106.6,74.01,2.37
472,Santa Maria,0,BR,1568500274,25,-16.02,-48.01,84.2,10.29
473,Pringsewu,89,ID,1568500274,86,-5.36,104.98,68.01,2.42
474,Kachiry,1,KZ,1568500274,87,53.07,76.1,54.33,6.46
475,Dali,100,CN,1568500274,93,34.79,109.94,57.57,2.04
476,Marzuq,100,YE,1568500275,51,14.4,46.47,75.39,6.64
477,Broome,53,GB,1568500275,87,52.47,1.45,59.0,8.05
478,Umm Lajj,0,SA,1568500275,75,25.02,37.27,83.85,18.7
479,Ilebo,100,CD,1568500275,94,-4.33,20.59,72.87,1.95
480,Altamont,1,CA,1568500276,72,49.4,-98.5,68.0,9.17
481,Port Macquarie,2,AU,1568500276,100,-31.43,152.91,69.01,1.12
482,Ocampo,0,MX,1568500276,50,27.32,-102.4,71.43,13.31
483,Velikiy Ustyug,94,RU,1568500276,85,60.76,46.3,45.51,12.73
484,Bollnas,100,SE,1568500277,94,61.35,16.39,47.85,12.15
485,Iskateley,100,RU,1568500277,94,67.68,53.15,49.65,16.91
486,Yumen,0,CN,1568500277,32,40.29,97.04,54.69,8.01
487,Mushie,92,CD,1568500278,85,-3.02,16.92,75.39,2.37
488,Xining,68,CN,1568500278,84,36.62,101.77,41.73,2.35
489,Meadow Lake,40,CA,1568500155,49,54.13,-108.44,71.6,11.41
490,Jiuquan,0,CN,1568500278,22,39.73,98.49,53.43,4.34
491,Sao Jose da Coroa Grande,55,BR,1568500278,91,-8.9,-35.15,68.37,3.04
492,Shingu,0,JP,1568500279,64,33.72,135.99,77.55,0.89
493,Mattru,100,SL,1568500279,96,7.62,-11.83,74.85,3.87
494,Yankton,1,US,1568500279,62,42.87,-97.4,84.99,12.75
495,Coos Bay,1,US,1568500279,68,43.37,-124.22,69.8,10.29
496,Rawson,99,AR,1568500280,42,-43.3,-65.11,57.21,8.52
497,Alice Springs,0,AU,1568500280,19,-23.7,133.88,57.2,2.24
498,Evensk,98,RU,1568500280,47,61.92,159.24,47.67,2.15
499,Naze,99,NG,1568500280,96,5.43,7.07,73.41,3.96
500,Ulladulla,1,AU,1568500281,36,-35.36,150.48,60.8,17.22
501,Timmins,90,CA,1568500281,100,48.48,-81.33,51.8,9.17
502,Gorontalo,52,ID,1568500281,67,0.54,123.06,79.89,7.83
503,Tibacuy,40,CO,1568500281,51,4.35,-74.45,62.6,11.41
504,Dajabon,40,DO,1568500281,70,19.55,-71.71,87.8,9.17
505,Zyryanka,100,RU,1568500282,53,65.73,150.89,55.41,11.07
506,Abu Dhabi,0,AE,1568500206,84,24.47,54.37,89.6,5.82
507,Do Gonbadan,0,IR,1568500282,22,30.36,50.8,75.2,3.13
508,Cayenne,0,GF,1568500282,78,4.94,-52.33,82.4,3.36
509,Qaqortoq,0,GL,1568500283,82,60.72,-46.03,42.8,10.29
510,Bereda,0,ES,1568500283,88,43.27,-7.54,66.99,5.82
511,Novyy Urgal,58,RU,1568500283,73,51.07,132.56,51.45,2.1
512,Pembroke,90,CA,1568500283,67,45.82,-77.11,62.6,14.99
513,Taiping,75,MY,1568500284,94,4.85,100.74,75.2,3.36
514,Pacifica,20,US,1568500284,50,37.61,-122.49,84.99,21.92
515,Mikhaylovskoye,0,RU,1568500284,49,43.1,44.64,54.15,3.98
516,Qiqihar,20,CN,1568500284,43,47.35,123.91,62.97,14.7
517,Ambunti,78,PG,1568500285,64,-4.22,142.82,85.83,1.23
518,Bondo,96,CD,1568500285,93,3.81,23.69,69.63,2.26
519,Tarata,0,PE,1568500285,72,-17.47,-70.03,60.8,9.17
520,Katsuura,20,JP,1568500285,88,33.93,134.5,73.4,5.82
521,Rapid Valley,1,US,1568500286,32,44.06,-103.15,82.0,3.36
522,Puerto Leguizamo,99,CO,1568500286,96,-0.19,-74.78,73.77,1.36
523,Sabang,100,PH,1568500286,95,13.8,121.11,75.99,2.46
524,Athabasca,66,CA,1568500247,67,54.72,-113.29,63.15,0.85
525,Arenal,100,CO,1568500287,95,8.46,-73.94,78.27,3.65
526,Boxtel,49,NL,1568500287,87,51.59,5.33,55.99,1.12
527,Havre-Saint-Pierre,90,CA,1568500287,81,50.23,-63.6,50.0,6.93
528,Talakan,71,RU,1568500287,89,50.29,130.28,54.51,11.45
529,Corona,1,US,1568500101,27,33.88,-117.57,104.0,14.99
530,Tura,93,RU,1568500288,72,64.27,100.22,31.11,2.06
531,Lazaro Cardenas,75,MX,1568500288,39,28.39,-105.62,82.4,10.78
532,Matara,67,BI,1568500288,80,-3.48,29.48,54.69,1.99
533,Axim,100,GH,1568500289,93,4.87,-2.24,75.93,7.47
534,Berezovka,0,RU,1568500289,93,55.71,42.61,43.35,6.04
535,Ust-Nera,100,RU,1568500289,95,64.57,143.24,40.29,4.52
536,Krasnokholm,61,RU,1568500289,40,51.6,54.16,63.69,6.87
537,Auki,100,NG,1568500290,89,12.18,6.51,74.13,11.39
538,Vila Franca do Campo,40,PT,1568500290,77,37.72,-25.43,68.0,5.82
539,Nguru,41,NG,1568500290,60,12.88,10.45,80.97,9.37
540,San Cristobal,94,HN,1568500290,78,14.68,-86.92,73.23,5.23
541,Jumla,98,NP,1568500291,95,29.28,82.18,53.25,1.39
542,Hualmay,28,PE,1568500258,86,-11.1,-77.61,60.81,13.96
543,Tarauaca,54,BR,1568500291,62,-8.16,-70.77,79.35,0.98
544,Sao Filipe,2,CV,1568500291,86,14.9,-24.5,77.91,17.87
545,Kidal,1,ML,1568500292,16,18.44,1.41,95.37,11.23
546,Ca Mau,88,VN,1568500292,91,9.18,105.15,77.01,11.12
547,Puerto Colombia,75,CO,1568500292,79,10.99,-74.96,87.8,11.41
548,Gedo,65,ET,1568500292,95,9.01,37.45,56.31,0.87
549,Nevsehir,75,TR,1568500292,82,38.62,34.71,61.0,9.17
550,Samarai,100,PG,1568500293,88,-10.62,150.67,71.43,8.12
551,Sidrolandia,75,BR,1568500293,27,-20.93,-54.96,89.6,4.7
552,Rongcheng,66,CN,1568500293,63,37.16,122.42,72.33,7.54
553,Pilar,20,AR,1568500175,59,-34.46,-58.91,64.99,11.41
554,Ibitinga,0,BR,1568500294,54,-21.76,-48.83,84.2,9.17
555,Kichera,100,RU,1568500294,74,55.93,110.1,25.89,8.84
556,Acajutla,20,SV,1568500260,46,13.59,-89.83,89.6,4.7
557,Mayo,90,CA,1568500294,62,63.59,-135.9,55.4,11.41
558,Faya,0,SA,1568500295,63,18.39,42.45,69.8,4.05
559,Halifax,75,CA,1568500172,77,44.65,-63.58,59.0,17.22
560,Yar-Sale,84,RU,1568500295,76,66.83,70.83,35.61,11.83
561,Namwala,40,ZM,1568500295,27,-15.75,26.45,64.41,2.68
562,Bansi,100,IN,1568500295,88,27.18,82.93,77.01,8.12
563,Wanning,74,AT,1568500296,82,48.64,13.53,59.0,4.7
564,Birecik,75,TR,1568500296,33,37.03,37.98,72.0,3.36
565,Pangnirtung,0,CA,1568500296,63,66.15,-65.72,26.79,4.52
